2023-02-02 12:16:55 1675340215.659244: {"class":"VERSION","release":"3.20","rev":"3.20","proto_major":3,"proto_minor":14}
2023-02-02 12:16:55 1675340215.659324: {"class":"DEVICES","devices":[{"class":"DEVICE","path":"/dev/serial/by-id/usb-Prolific_Technology_Inc._USB-Serial_Controller_CHCTb115818-if00-port0","driver":"u-blox","subtype":"SW 1.00 (59842),HW 00070000","subtype1":",PROTVER 14.00,GPS;SBAS;GLO;QZSS","activated":"2023-02-02T12:16:55.332Z","flags":1,"native":1,"bps":9600,"parity":"N","stopbits":1,"cycle":1.00,"mincycle":0.25}]}
2023-02-02 12:16:55 1675340215.659334: {"class":"WATCH","enable":true,"json":true,"nmea":false,"raw":0,"scaled":false,"timing":false,"split24":false,"pps":false}
2023-02-02 12:16:56 1675340216.002151: {"class":"PPS","device":"/dev/serial/by-id/usb-Prolific_Technology_Inc._USB-Serial_Controller_CHCTb115818-if00-port0","real_sec":1675340216,"real_nsec":0,"clock_sec":1675340216,"clock_nsec":1947289,"precision":-10}
2023-02-02 12:16:56 1675340216.129516: {"class":"TPV","device":"/dev/serial/by-id/usb-Prolific_Technology_Inc._USB-Serial_Controller_CHCTb115818-if00-port0","status":2,"mode":3,"time":"2023-02-02T12:16:56.000Z","leapseconds":18,"ept":0.005,"lat":25.018696000,"lon":121.541711700,"altHAE":41.765,"altMSL":24.706,"alt":24.706,"epx":3.738,"epy":4.262,"epv":40.618,"track":31.6248,"magtrack":27.0170,"magvar":-4.6,"speed":0.180,"climb":0.000,"eps":0.76,"epc":51.10,"ecefx":-3025290.69,"ecefy":4928767.52,"ecefz":2680969.51,"ecefvx":0.05,"ecefvy":0.00,"ecefvz":-0.09,"ecefpAcc":43.25,"ecefvAcc":0.76,"geoidSep":19.364,"eph":15.094,"sep":24.160}
2023-02-02 12:16:56 1675340216.225023: {"class":"TPV","device":"/dev/serial/by-id/usb-Prolific_Technology_Inc._USB-Serial_Controller_CHCTb115818-if00-port0","status":2,"mode":3,"time":"2023-02-02T12:16:56.000Z","leapseconds":18,"ept":0.005,"lat":25.018699300,"lon":121.541713700,"altHAE":42.292,"altMSL":25.233,"alt":25.233,"epx":3.738,"epy":4.262,"epv":40.519,"track":31.6248,"magtrack":27.0170,"magvar":-4.6,"speed":0.082,"climb":0.000,"eps":0.76,"epc":51.10,"ecefx":-3025290.69,"ecefy":4928767.52,"ecefz":2680969.51,"ecefvx":0.05,"ecefvy":0.00,"ecefvz":-0.09,"ecefpAcc":43.25,"ecefvAcc":0.76,"geoidSep":19.364,"eph":15.117,"sep":24.160}
2023-02-02 12:16:56 1675340216.335588: {"class":"TPV","device":"/dev/serial/by-id/usb-Prolific_Technology_Inc._USB-Serial_Controller_CHCTb115818-if00-port0","status":2,"mode":3,"time":"2023-02-02T12:16:56.000Z","leapseconds":18,"ept":0.005,"lat":25.018699300,"lon":121.541713700,"altHAE":42.292,"altMSL":25.233,"alt":25.233,"epx":3.738,"epy":4.262,"epv":40.519,"track":31.6248,"magtrack":27.0170,"magvar":-4.6,"speed":0.082,"climb":0.000,"eps":0.76,"epc":51.10,"ecefx":-3025290.69,"ecefy":4928767.52,"ecefz":2680969.51,"ecefvx":0.05,"ecefvy":0.00,"ecefvz":-0.09,"ecefpAcc":43.25,"ecefvAcc":0.76,"geoidSep":19.364,"eph":15.117,"sep":24.160}
2023-02-02 12:16:57 1675340217.002047: {"class":"PPS","device":"/dev/serial/by-id/usb-Prolific_Technology_Inc._USB-Serial_Controller_CHCTb115818-if00-port0","real_sec":1675340217,"real_nsec":0,"clock_sec":1675340217,"clock_nsec":1892356,"precision":-10}
2023-02-02 12:16:57 1675340217.128262: {"class":"TPV","device":"/dev/serial/by-id/usb-Prolific_Technology_Inc._USB-Serial_Controller_CHCTb115818-if00-port0","status":2,"mode":3,"time":"2023-02-02T12:16:57.000Z","leapseconds":18,"ept":0.005,"lat":25.018699300,"lon":121.541713700,"altHAE":42.292,"altMSL":25.233,"alt":25.233,"epx":3.738,"epy":4.262,"epv":40.519,"track":31.6248,"magtrack":27.0170,"magvar":-4.6,"speed":0.082,"climb":0.000,"eps":0.68,"epc":51.10,"ecefx":-3025291.05,"ecefy":4928767.61,"ecefz":2680970.09,"ecefvx":-0.03,"ecefvy":-0.09,"ecefvz":0.00,"ecefpAcc":43.15,"ecefvAcc":0.68,"geoidSep":19.364,"eph":15.117,"sep":24.160}
2023-02-02 12:16:57 1675340217.224242: {"class":"TPV","device":"/dev/serial/by-id/usb-Prolific_Technology_Inc._USB-Serial_Controller_CHCTb115818-if00-port0","status":2,"mode":3,"time":"2023-02-02T12:16:57.000Z","leapseconds":18,"ept":0.005,"lat":25.018703100,"lon":121.541716300,"altHAE":42.775,"altMSL":25.716,"alt":25.716,"epx":3.738,"epy":4.262,"epv":40.407,"track":31.6248,"magtrack":27.0170,"magvar":-4.6,"speed":0.072,"climb":0.000,"eps":0.68,"epc":51.10,"ecefx":-3025291.05,"ecefy":4928767.61,"ecefz":2680970.09,"ecefvx":-0.03,"ecefvy":-0.09,"ecefvz":0.00,"ecefpAcc":43.15,"ecefvAcc":0.68,"geoidSep":19.364,"eph":15.128,"sep":24.160}
2023-02-02 12:16:58 1675340218.002072: {"class":"PPS","device":"/dev/serial/by-id/usb-Prolific_Technology_Inc._USB-Serial_Controller_CHCTb115818-if00-port0","real_sec":1675340218,"real_nsec":0,"clock_sec":1675340218,"clock_nsec":1919024,"precision":-10}
2023-02-02 12:16:58 1675340218.128498: {"class":"TPV","device":"/dev/serial/by-id/usb-Prolific_Technology_Inc._USB-Serial_Controller_CHCTb115818-if00-port0","status":2,"mode":3,"time":"2023-02-02T12:16:58.000Z","leapseconds":18,"ept":0.005,"lat":25.018703100,"lon":121.541716300,"altHAE":42.775,"altMSL":25.716,"alt":25.716,"epx":3.738,"epy":4.262,"epv":40.407,"track":31.6248,"magtrack":27.0170,"magvar":-4.6,"speed":0.072,"climb":0.000,"eps":0.50,"epc":51.10,"ecefx":-3025291.25,"ecefy":4928768.11,"ecefz":2680970.57,"ecefvx":0.00,"ecefvy":-0.06,"ecefvz":-0.01,"ecefpAcc":43.04,"ecefvAcc":0.50,"geoidSep":19.364,"eph":15.128,"sep":24.160}
2023-02-02 12:16:58 1675340218.224259: {"class":"TPV","device":"/dev/serial/by-id/usb-Prolific_Technology_Inc._USB-Serial_Controller_CHCTb115818-if00-port0","status":2,"mode":3,"time":"2023-02-02T12:16:58.000Z","leapseconds":18,"ept":0.005,"lat":25.018704900,"lon":121.541715400,"altHAE":43.458,"altMSL":26.399,"alt":26.399,"epx":3.738,"epy":4.262,"epv":40.296,"track":31.6248,"magtrack":27.0170,"magvar":-4.6,"speed":0.030,"climb":0.000,"eps":0.51,"epc":51.10,"ecefx":-3025291.25,"ecefy":4928768.11,"ecefz":2680970.57,"ecefvx":0.00,"ecefvy":-0.06,"ecefvz":-0.01,"ecefpAcc":43.04,"ecefvAcc":0.50,"geoidSep":19.364,"eph":15.130,"sep":24.160}
2023-02-02 12:16:58 1675340218.453092: {"class":"SKY","device":"/dev/serial/by-id/usb-Prolific_Technology_Inc._USB-Serial_Controller_CHCTb115818-if00-port0","xdop":0.99,"ydop":1.15,"vdop":5.07,"tdop":3.91,"hdop":1.49,"gdop":6.58,"pdop":5.29,"satellites":[{"PRN":1,"el":12.0,"az":49.0,"ss":0.0,"used":false,"gnssid":0,"svid":1,"health":1},{"PRN":3,"el":40.0,"az":49.0,"ss":19.0,"used":true,"gnssid":0,"svid":3,"health":1},{"PRN":4,"el":12.0,"az":110.0,"ss":0.0,"used":false,"gnssid":0,"svid":4,"health":1},{"PRN":6,"el":44.0,"az":280.0,"ss":30.0,"used":true,"gnssid":0,"svid":6,"health":1},{"PRN":9,"el":12.0,"az":144.0,"ss":12.0,"used":false,"gnssid":0,"svid":9,"health":1},{"PRN":11,"el":13.0,"az":252.0,"ss":16.0,"used":false,"gnssid":0,"svid":11,"health":1},{"PRN":14,"el":66.0,"az":187.0,"ss":37.0,"used":true,"gnssid":0,"svid":14,"health":1},{"PRN":17,"el":55.0,"az":9.0,"ss":16.0,"used":true,"gnssid":0,"svid":17,"health":1},{"PRN":19,"el":37.0,"az":326.0,"ss":26.0,"used":true,"gnssid":0,"svid":19,"health":1},{"PRN":20,"el":1.0,"az":214.0,"ss":0.0,"used":false,"gnssid":0,"svid":20,"health":1},{"PRN":30,"el":9.0,"az":199.0,"ss":0.0,"used":false,"gnssid":0,"svid":30,"health":1},{"PRN":40,"el":13.0,"az":260.0,"ss":0.0,"used":false,"gnssid":1,"svid":127,"health":1},{"PRN":42,"el":54.0,"az":142.0,"ss":0.0,"used":false,"gnssid":1,"svid":129,"health":1},{"PRN":50,"el":60.0,"az":167.0,"ss":37.0,"used":false,"gnssid":1,"svid":137,"health":1},{"PRN":194,"el":53.0,"az":162.0,"ss":18.0,"used":true,"gnssid":5,"svid":2,"health":1},{"PRN":195,"el":66.0,"az":38.0,"ss":0.0,"used":false,"gnssid":5,"svid":3,"health":1},{"PRN":196,"el":53.0,"az":142.0,"ss":21.0,"used":false,"gnssid":5,"svid":4,"health":1}]}
2023-02-02 12:16:58 1675340218.563911: {"class":"TPV","device":"/dev/serial/by-id/usb-Prolific_Technology_Inc._USB-Serial_Controller_CHCTb115818-if00-port0","status":2,"mode":3,"time":"2023-02-02T12:16:58.000Z","leapseconds":18,"ept":0.005,"lat":25.018704900,"lon":121.541715400,"altHAE":43.458,"altMSL":26.399,"alt":26.399,"epx":3.738,"epy":4.262,"epv":40.296,"track":31.6248,"magtrack":27.0170,"magvar":-4.6,"speed":0.030,"climb":0.000,"eps":0.51,"epc":51.10,"ecefx":-3025291.25,"ecefy":4928768.11,"ecefz":2680970.57,"ecefvx":0.00,"ecefvy":-0.06,"ecefvz":-0.01,"ecefpAcc":43.04,"ecefvAcc":0.50,"geoidSep":19.364,"eph":15.130,"sep":24.160}
2023-02-02 12:16:59 1675340219.002004: {"class":"PPS","device":"/dev/serial/by-id/usb-Prolific_Technology_Inc._USB-Serial_Controller_CHCTb115818-if00-port0","real_sec":1675340219,"real_nsec":0,"clock_sec":1675340219,"clock_nsec":1806847,"precision":-10}
2023-02-02 12:16:59 1675340219.125254: {"class":"TPV","device":"/dev/serial/by-id/usb-Prolific_Technology_Inc._USB-Serial_Controller_CHCTb115818-if00-port0","status":2,"mode":3,"time":"2023-02-02T12:16:59.000Z","leapseconds":18,"ept":0.005,"lat":25.018704900,"lon":121.541715400,"altHAE":43.458,"altMSL":26.399,"alt":26.399,"epx":3.738,"epy":4.262,"epv":40.296,"track":31.6248,"magtrack":27.0170,"magvar":-4.6,"speed":0.030,"climb":0.000,"eps":0.84,"epc":51.10,"ecefx":-3025291.72,"ecefy":4928768.12,"ecefz":2680971.34,"ecefvx":-0.07,"ecefvy":-0.14,"ecefvz":0.07,"ecefpAcc":42.98,"ecefvAcc":0.84,"geoidSep":19.364,"eph":15.130,"sep":24.160}
2023-02-02 12:16:59 1675340219.220949: {"class":"TPV","device":"/dev/serial/by-id/usb-Prolific_Technology_Inc._USB-Serial_Controller_CHCTb115818-if00-port0","status":2,"mode":3,"time":"2023-02-02T12:16:59.000Z","leapseconds":18,"ept":0.005,"lat":25.018710200,"lon":121.541719400,"altHAE":44.016,"altMSL":26.957,"alt":26.957,"epx":3.738,"epy":4.262,"epv":40.227,"track":31.6248,"magtrack":27.0170,"magvar":-4.6,"speed":0.168,"climb":0.000,"eps":0.84,"epc":51.10,"ecefx":-3025291.72,"ecefy":4928768.12,"ecefz":2680971.34,"ecefvx":-0.07,"ecefvy":-0.14,"ecefvz":0.07,"ecefpAcc":42.98,"ecefvAcc":0.84,"geoidSep":19.364,"eph":15.148,"sep":24.160}
2023-02-02 12:17:00 1675340220.001942: {"class":"PPS","device":"/dev/serial/by-id/usb-Prolific_Technology_Inc._USB-Serial_Controller_CHCTb115818-if00-port0","real_sec":1675340220,"real_nsec":0,"clock_sec":1675340220,"clock_nsec":1790866,"precision":-10}
2023-02-02 12:17:00 1675340220.132260: {"class":"TPV","device":"/dev/serial/by-id/usb-Prolific_Technology_Inc._USB-Serial_Controller_CHCTb115818-if00-port0","status":2,"mode":3,"time":"2023-02-02T12:17:00.000Z","leapseconds":18,"ept":0.005,"lat":25.018710200,"lon":121.541719400,"altHAE":44.016,"altMSL":26.957,"alt":26.957,"epx":3.738,"epy":4.262,"epv":40.227,"track":31.6248,"magtrack":27.0170,"magvar":-4.6,"speed":0.168,"climb":0.000,"eps":0.61,"epc":51.10,"ecefx":-3025291.93,"ecefy":4928768.69,"ecefz":2680971.83,"ecefvx":0.00,"ecefvy":-0.05,"ecefvz":0.00,"ecefpAcc":42.91,"ecefvAcc":0.61,"geoidSep":19.364,"eph":15.148,"sep":24.160}
2023-02-02 12:17:00 1675340220.228262: {"class":"TPV","device":"/dev/serial/by-id/usb-Prolific_Technology_Inc._USB-Serial_Controller_CHCTb115818-if00-port0","status":2,"mode":3,"time":"2023-02-02T12:17:00.000Z","leapseconds":18,"ept":0.005,"lat":25.018712000,"lon":121.541718100,"altHAE":44.760,"altMSL":27.701,"alt":27.701,"epx":3.738,"epy":4.262,"epv":40.147,"track":31.6248,"magtrack":27.0170,"magvar":-4.6,"speed":0.033,"climb":0.000,"eps":0.61,"epc":51.10,"ecefx":-3025291.93,"ecefy":4928768.69,"ecefz":2680971.83,"ecefvx":0.00,"ecefvy":-0.05,"ecefvz":0.00,"ecefpAcc":42.91,"ecefvAcc":0.61,"geoidSep":19.364,"eph":15.162,"sep":24.160}
2023-02-02 12:17:00 1675340220.338520: {"class":"TPV","device":"/dev/serial/by-id/usb-Prolific_Technology_Inc._USB-Serial_Controller_CHCTb115818-if00-port0","status":2,"mode":3,"time":"2023-02-02T12:17:00.000Z","leapseconds":18,"ept":0.005,"lat":25.018712000,"lon":121.541718100,"altHAE":44.760,"altMSL":27.701,"alt":27.701,"epx":3.738,"epy":4.262,"epv":40.147,"track":31.6248,"magtrack":27.0170,"magvar":-4.6,"speed":0.033,"climb":0.000,"eps":0.61,"epc":51.10,"ecefx":-3025291.93,"ecefy":4928768.69,"ecefz":2680971.83,"ecefvx":0.00,"ecefvy":-0.05,"ecefvz":0.00,"ecefpAcc":42.91,"ecefvAcc":0.61,"geoidSep":19.364,"eph":15.162,"sep":24.160}
2023-02-02 12:17:01 1675340221.002039: {"class":"PPS","device":"/dev/serial/by-id/usb-Prolific_Technology_Inc._USB-Serial_Controller_CHCTb115818-if00-port0","real_sec":1675340221,"real_nsec":0,"clock_sec":1675340221,"clock_nsec":1880110,"precision":-10}
2023-02-02 12:17:01 1675340221.129488: {"class":"TPV","device":"/dev/serial/by-id/usb-Prolific_Technology_Inc._USB-Serial_Controller_CHCTb115818-if00-port0","status":2,"mode":3,"time":"2023-02-02T12:17:01.000Z","leapseconds":18,"ept":0.005,"lat":25.018712000,"lon":121.541718100,"altHAE":44.760,"altMSL":27.701,"alt":27.701,"epx":3.738,"epy":4.262,"epv":40.147,"track":31.6248,"magtrack":27.0170,"magvar":-4.6,"speed":0.033,"climb":0.000,"eps":0.50,"epc":51.10,"ecefx":-3025292.02,"ecefy":4928769.27,"ecefz":2680972.19,"ecefvx":0.02,"ecefvy":-0.04,"ecefvz":0.01,"ecefpAcc":42.84,"ecefvAcc":0.50,"geoidSep":19.364,"eph":15.162,"sep":24.160}
2023-02-02 12:17:01 1675340221.225255: {"class":"TPV","device":"/dev/serial/by-id/usb-Prolific_Technology_Inc._USB-Serial_Controller_CHCTb115818-if00-port0","status":2,"mode":3,"time":"2023-02-02T12:17:01.000Z","leapseconds":18,"ept":0.005,"lat":25.018712900,"lon":121.541716000,"altHAE":45.401,"altMSL":28.342,"alt":28.342,"epx":3.738,"epy":4.262,"epv":40.056,"track":31.6248,"magtrack":27.0170,"magvar":-4.6,"speed":0.026,"climb":0.000,"eps":0.50,"epc":51.10,"ecefx":-3025292.02,"ecefy":4928769.27,"ecefz":2680972.19,"ecefvx":0.02,"ecefvy":-0.04,"ecefvz":0.01,"ecefpAcc":42.84,"ecefvAcc":0.50,"geoidSep":19.364,"eph":15.195,"sep":24.160}
2023-02-02 12:17:02 1675340222.002022: {"class":"PPS","device":"/dev/serial/by-id/usb-Prolific_Technology_Inc._USB-Serial_Controller_CHCTb115818-if00-port0","real_sec":1675340222,"real_nsec":0,"clock_sec":1675340222,"clock_nsec":1863707,"precision":-10}
2023-02-02 12:17:02 1675340222.129774: {"class":"TPV","device":"/dev/serial/by-id/usb-Prolific_Technology_Inc._USB-Serial_Controller_CHCTb115818-if00-port0","status":2,"mode":3,"time":"2023-02-02T12:17:02.000Z","leapseconds":18,"ept":0.005,"lat":25.018712900,"lon":121.541716000,"altHAE":45.401,"altMSL":28.342,"alt":28.342,"epx":3.738,"epy":4.262,"epv":40.056,"track":31.6248,"magtrack":27.0170,"magvar":-4.6,"speed":0.026,"climb":0.000,"eps":0.91,"epc":51.10,"ecefx":-3025292.41,"ecefy":4928769.40,"ecefz":2680972.96,"ecefvx":-0.04,"ecefvy":-0.15,"ecefvz":0.15,"ecefpAcc":42.74,"ecefvAcc":0.91,"geoidSep":19.364,"eph":15.195,"sep":24.160}
2023-02-02 12:17:02 1675340222.225368: {"class":"TPV","device":"/dev/serial/by-id/usb-Prolific_Technology_Inc._USB-Serial_Controller_CHCTb115818-if00-port0","status":2,"mode":3,"time":"2023-02-02T12:17:02.000Z","leapseconds":18,"ept":0.005,"lat":25.018718000,"lon":121.541718500,"altHAE":46.014,"altMSL":28.955,"alt":28.955,"epx":3.738,"epy":4.262,"epv":39.939,"track":31.6248,"magtrack":27.0170,"magvar":-4.6,"speed":0.213,"climb":0.000,"eps":0.91,"epc":51.10,"ecefx":-3025292.41,"ecefy":4928769.40,"ecefz":2680972.96,"ecefvx":-0.04,"ecefvy":-0.15,"ecefvz":0.15,"ecefpAcc":42.74,"ecefvAcc":0.91,"geoidSep":19.364,"eph":15.221,"sep":24.160}
2023-02-02 12:17:02 1675340222.335929: {"class":"TPV","device":"/dev/serial/by-id/usb-Prolific_Technology_Inc._USB-Serial_Controller_CHCTb115818-if00-port0","status":2,"mode":3,"time":"2023-02-02T12:17:02.000Z","leapseconds":18,"ept":0.005,"lat":25.018718000,"lon":121.541718500,"altHAE":46.014,"altMSL":28.955,"alt":28.955,"epx":3.738,"epy":4.262,"epv":39.939,"track":31.6248,"magtrack":27.0170,"magvar":-4.6,"speed":0.213,"climb":0.000,"eps":0.91,"epc":51.10,"ecefx":-3025292.41,"ecefy":4928769.40,"ecefz":2680972.96,"ecefvx":-0.04,"ecefvy":-0.15,"ecefvz":0.15,"ecefpAcc":42.74,"ecefvAcc":0.91,"geoidSep":19.364,"eph":15.221,"sep":24.160}
2023-02-02 12:17:03 1675340223.002000: {"class":"PPS","device":"/dev/serial/by-id/usb-Prolific_Technology_Inc._USB-Serial_Controller_CHCTb115818-if00-port0","real_sec":1675340223,"real_nsec":0,"clock_sec":1675340223,"clock_nsec":1843049,"precision":-10}
2023-02-02 12:17:03 1675340223.128130: {"class":"TPV","device":"/dev/serial/by-id/usb-Prolific_Technology_Inc._USB-Serial_Controller_CHCTb115818-if00-port0","status":2,"mode":3,"time":"2023-02-02T12:17:03.000Z","leapseconds":18,"ept":0.005,"lat":25.018718000,"lon":121.541718500,"altHAE":46.014,"altMSL":28.955,"alt":28.955,"epx":3.738,"epy":4.262,"epv":39.939,"track":31.6248,"magtrack":27.0170,"magvar":-4.6,"speed":0.213,"climb":0.000,"eps":0.78,"epc":51.10,"ecefx":-3025292.62,"ecefy":4928769.73,"ecefz":2680973.23,"ecefvx":-0.05,"ecefvy":-0.08,"ecefvz":0.04,"ecefpAcc":42.64,"ecefvAcc":0.78,"geoidSep":19.364,"eph":15.221,"sep":24.160}
2023-02-02 12:17:03 1675340223.223984: {"class":"TPV","device":"/dev/serial/by-id/usb-Prolific_Technology_Inc._USB-Serial_Controller_CHCTb115818-if00-port0","status":2,"mode":3,"time":"2023-02-02T12:17:03.000Z","leapseconds":18,"ept":0.005,"lat":25.018718700,"lon":121.541718600,"altHAE":46.484,"altMSL":29.425,"alt":29.425,"epx":3.738,"epy":4.262,"epv":39.869,"track":31.6248,"magtrack":27.0170,"magvar":-4.6,"speed":0.097,"climb":0.000,"eps":0.78,"epc":51.10,"ecefx":-3025292.62,"ecefy":4928769.73,"ecefz":2680973.23,"ecefvx":-0.05,"ecefvy":-0.08,"ecefvz":0.04,"ecefpAcc":42.64,"ecefvAcc":0.78,"geoidSep":19.364,"eph":15.132,"sep":24.160}
2023-02-02 12:17:04 1675340224.001997: {"class":"PPS","device":"/dev/serial/by-id/usb-Prolific_Technology_Inc._USB-Serial_Controller_CHCTb115818-if00-port0","real_sec":1675340224,"real_nsec":0,"clock_sec":1675340224,"clock_nsec":1837893,"precision":-10}
2023-02-02 12:17:04 1675340224.128857: {"class":"TPV","device":"/dev/serial/by-id/usb-Prolific_Technology_Inc._USB-Serial_Controller_CHCTb115818-if00-port0","status":2,"mode":3,"time":"2023-02-02T12:17:04.000Z","leapseconds":18,"ept":0.005,"lat":25.018718700,"lon":121.541718600,"altHAE":46.484,"altMSL":29.425,"alt":29.425,"epx":3.738,"epy":4.262,"epv":39.869,"track":31.6248,"magtrack":27.0170,"magvar":-4.6,"speed":0.097,"climb":0.000,"eps":0.74,"epc":51.10,"ecefx":-3025292.79,"ecefy":4928770.04,"ecefz":2680973.61,"ecefvx":-0.05,"ecefvy":-0.06,"ecefvz":0.01,"ecefpAcc":42.54,"ecefvAcc":0.74,"geoidSep":19.364,"eph":15.132,"sep":24.160}
2023-02-02 12:17:04 1675340224.224411: {"class":"TPV","device":"/dev/serial/by-id/usb-Prolific_Technology_Inc._USB-Serial_Controller_CHCTb115818-if00-port0","status":2,"mode":3,"time":"2023-02-02T12:17:04.000Z","leapseconds":18,"ept":0.005,"lat":25.018720400,"lon":121.541718400,"altHAE":46.958,"altMSL":29.899,"alt":29.899,"epx":3.738,"epy":4.262,"epv":39.776,"track":31.6248,"magtrack":27.0170,"magvar":-4.6,"speed":0.076,"climb":0.000,"eps":0.74,"epc":51.10,"ecefx":-3025292.79,"ecefy":4928770.04,"ecefz":2680973.61,"ecefvx":-0.05,"ecefvy":-0.06,"ecefvz":0.01,"ecefpAcc":42.54,"ecefvAcc":0.74,"geoidSep":19.364,"eph":15.075,"sep":24.160}
2023-02-02 12:17:04 1675340224.334650: {"class":"TPV","device":"/dev/serial/by-id/usb-Prolific_Technology_Inc._USB-Serial_Controller_CHCTb115818-if00-port0","status":2,"mode":3,"time":"2023-02-02T12:17:04.000Z","leapseconds":18,"ept":0.005,"lat":25.018720400,"lon":121.541718400,"altHAE":46.958,"altMSL":29.899,"alt":29.899,"epx":3.738,"epy":4.262,"epv":39.776,"track":31.6248,"magtrack":27.0170,"magvar":-4.6,"speed":0.076,"climb":0.000,"eps":0.74,"epc":51.10,"ecefx":-3025292.79,"ecefy":4928770.04,"ecefz":2680973.61,"ecefvx":-0.05,"ecefvy":-0.06,"ecefvz":0.01,"ecefpAcc":42.54,"ecefvAcc":0.74,"geoidSep":19.364,"eph":15.075,"sep":24.160}
2023-02-02 12:17:05 1675340225.001945: {"class":"PPS","device":"/dev/serial/by-id/usb-Prolific_Technology_Inc._USB-Serial_Controller_CHCTb115818-if00-port0","real_sec":1675340225,"real_nsec":0,"clock_sec":1675340225,"clock_nsec":1792783,"precision":-10}
2023-02-02 12:17:05 1675340225.130131: {"class":"TPV","device":"/dev/serial/by-id/usb-Prolific_Technology_Inc._USB-Serial_Controller_CHCTb115818-if00-port0","status":2,"mode":3,"time":"2023-02-02T12:17:05.000Z","leapseconds":18,"ept":0.005,"lat":25.018720400,"lon":121.541718400,"altHAE":46.958,"altMSL":29.899,"alt":29.899,"epx":3.738,"epy":4.262,"epv":39.776,"track":31.6248,"magtrack":27.0170,"magvar":-4.6,"speed":0.076,"climb":0.000,"eps":0.76,"epc":51.10,"ecefx":-3025293.17,"ecefy":4928770.06,"ecefz":2680974.14,"ecefvx":-0.09,"ecefvy":-0.11,"ecefvz":0.07,"ecefpAcc":42.46,"ecefvAcc":0.76,"geoidSep":19.364,"eph":15.075,"sep":24.160}
2023-02-02 12:17:05 1675340225.225879: {"class":"TPV","device":"/dev/serial/by-id/usb-Prolific_Technology_Inc._USB-Serial_Controller_CHCTb115818-if00-port0","status":2,"mode":3,"time":"2023-02-02T12:17:05.000Z","leapseconds":18,"ept":0.005,"lat":25.018724000,"lon":121.541721500,"altHAE":47.382,"altMSL":30.323,"alt":30.323,"epx":3.738,"epy":4.262,"epv":39.708,"track":31.6248,"magtrack":27.0170,"magvar":-4.6,"speed":0.159,"climb":0.000,"eps":0.76,"epc":51.10,"ecefx":-3025293.17,"ecefy":4928770.06,"ecefz":2680974.14,"ecefvx":-0.09,"ecefvy":-0.11,"ecefvz":0.07,"ecefpAcc":42.46,"ecefvAcc":0.76,"geoidSep":19.364,"eph":15.036,"sep":24.160}
2023-02-02 12:17:06 1675340226.001975: {"class":"PPS","device":"/dev/serial/by-id/usb-Prolific_Technology_Inc._USB-Serial_Controller_CHCTb115818-if00-port0","real_sec":1675340226,"real_nsec":0,"clock_sec":1675340226,"clock_nsec":1814971,"precision":-10}
2023-02-02 12:17:06 1675340226.128812: {"class":"TPV","device":"/dev/serial/by-id/usb-Prolific_Technology_Inc._USB-Serial_Controller_CHCTb115818-if00-port0","status":2,"mode":3,"time":"2023-02-02T12:17:06.000Z","leapseconds":18,"ept":0.005,"lat":25.018724000,"lon":121.541721500,"altHAE":47.382,"altMSL":30.323,"alt":30.323,"epx":3.738,"epy":4.262,"epv":39.708,"track":31.6248,"magtrack":27.0170,"magvar":-4.6,"speed":0.159,"climb":0.000,"eps":0.52,"epc":51.10,"ecefx":-3025293.21,"ecefy":4928770.60,"ecefz":2680974.39,"ecefvx":0.00,"ecefvy":0.00,"ecefvz":-0.02,"ecefpAcc":42.35,"ecefvAcc":0.52,"geoidSep":19.364,"eph":15.036,"sep":24.160}
2023-02-02 12:17:06 1675340226.224320: {"class":"TPV","device":"/dev/serial/by-id/usb-Prolific_Technology_Inc._USB-Serial_Controller_CHCTb115818-if00-port0","status":2,"mode":3,"time":"2023-02-02T12:17:06.000Z","leapseconds":18,"ept":0.005,"lat":25.018724200,"lon":121.541719000,"altHAE":47.924,"altMSL":30.865,"alt":30.865,"epx":3.738,"epy":4.262,"epv":39.614,"track":31.6248,"magtrack":27.0170,"magvar":-4.6,"speed":0.015,"climb":0.000,"eps":0.52,"epc":51.10,"ecefx":-3025293.21,"ecefy":4928770.60,"ecefz":2680974.39,"ecefvx":0.00,"ecefvy":0.00,"ecefvz":-0.02,"ecefpAcc":42.35,"ecefvAcc":0.52,"geoidSep":19.364,"eph":14.982,"sep":24.160}
2023-02-02 12:17:06 1675340226.334673: {"class":"TPV","device":"/dev/serial/by-id/usb-Prolific_Technology_Inc._USB-Serial_Controller_CHCTb115818-if00-port0","status":2,"mode":3,"time":"2023-02-02T12:17:06.000Z","leapseconds":18,"ept":0.005,"lat":25.018724200,"lon":121.541719000,"altHAE":47.924,"altMSL":30.865,"alt":30.865,"epx":3.738,"epy":4.262,"epv":39.614,"track":31.6248,"magtrack":27.0170,"magvar":-4.6,"speed":0.015,"climb":0.000,"eps":0.52,"epc":51.10,"ecefx":-3025293.21,"ecefy":4928770.60,"ecefz":2680974.39,"ecefvx":0.00,"ecefvy":0.00,"ecefvz":-0.02,"ecefpAcc":42.35,"ecefvAcc":0.52,"geoidSep":19.364,"eph":14.982,"sep":24.160}
2023-02-02 12:17:07 1675340227.001964: {"class":"PPS","device":"/dev/serial/by-id/usb-Prolific_Technology_Inc._USB-Serial_Controller_CHCTb115818-if00-port0","real_sec":1675340227,"real_nsec":0,"clock_sec":1675340227,"clock_nsec":1804358,"precision":-10}
2023-02-02 12:17:07 1675340227.130966: {"class":"TPV","device":"/dev/serial/by-id/usb-Prolific_Technology_Inc._USB-Serial_Controller_CHCTb115818-if00-port0","status":2,"mode":3,"time":"2023-02-02T12:17:07.000Z","leapseconds":18,"ept":0.005,"lat":25.018724200,"lon":121.541719000,"altHAE":47.924,"altMSL":30.865,"alt":30.865,"epx":3.738,"epy":4.262,"epv":39.614,"track":31.6248,"magtrack":27.0170,"magvar":-4.6,"speed":0.015,"climb":0.000,"eps":0.42,"epc":51.10,"ecefx":-3025293.23,"ecefy":4928770.85,"ecefz":2680974.59,"ecefvx":0.01,"ecefvy":-0.01,"ecefvz":0.01,"ecefpAcc":42.23,"ecefvAcc":0.42,"geoidSep":19.364,"eph":14.982,"sep":24.160}
2023-02-02 12:17:07 1675340227.226499: {"class":"TPV","device":"/dev/serial/by-id/usb-Prolific_Technology_Inc._USB-Serial_Controller_CHCTb115818-if00-port0","status":2,"mode":3,"time":"2023-02-02T12:17:07.000Z","leapseconds":18,"ept":0.005,"lat":25.018725000,"lon":121.541717900,"altHAE":48.213,"altMSL":31.154,"alt":31.154,"epx":3.738,"epy":4.262,"epv":39.508,"track":31.6248,"magtrack":27.0170,"magvar":-4.6,"speed":0.018,"climb":0.000,"eps":0.42,"epc":51.10,"ecefx":-3025293.23,"ecefy":4928770.85,"ecefz":2680974.59,"ecefvx":0.01,"ecefvy":-0.01,"ecefvz":0.01,"ecefpAcc":42.23,"ecefvAcc":0.42,"geoidSep":19.364,"eph":14.920,"sep":24.160}
2023-02-02 12:17:08 1675340228.001952: {"class":"PPS","device":"/dev/serial/by-id/usb-Prolific_Technology_Inc._USB-Serial_Controller_CHCTb115818-if00-port0","real_sec":1675340228,"real_nsec":0,"clock_sec":1675340228,"clock_nsec":1793541,"precision":-10}
2023-02-02 12:17:08 1675340228.128313: {"class":"TPV","device":"/dev/serial/by-id/usb-Prolific_Technology_Inc._USB-Serial_Controller_CHCTb115818-if00-port0","status":2,"mode":3,"time":"2023-02-02T12:17:08.000Z","leapseconds":18,"ept":0.005,"lat":25.018725000,"lon":121.541717900,"altHAE":48.213,"altMSL":31.154,"alt":31.154,"epx":3.738,"epy":4.262,"epv":39.508,"track":31.6248,"magtrack":27.0170,"magvar":-4.6,"speed":0.018,"climb":0.000,"eps":0.54,"epc":51.10,"ecefx":-3025293.39,"ecefy":4928770.84,"ecefz":2680974.84,"ecefvx":0.01,"ecefvy":-0.02,"ecefvz":0.03,"ecefpAcc":42.13,"ecefvAcc":0.54,"geoidSep":19.364,"eph":14.920,"sep":24.160}
2023-02-02 12:17:08 1675340228.224128: {"class":"TPV","device":"/dev/serial/by-id/usb-Prolific_Technology_Inc._USB-Serial_Controller_CHCTb115818-if00-port0","status":2,"mode":3,"time":"2023-02-02T12:17:08.000Z","leapseconds":18,"ept":0.005,"lat":25.018726700,"lon":121.541719300,"altHAE":48.384,"altMSL":31.325,"alt":31.325,"epx":3.738,"epy":4.262,"epv":39.419,"track":31.6248,"magtrack":27.0170,"magvar":-4.6,"speed":0.040,"climb":0.000,"eps":0.54,"epc":51.10,"ecefx":-3025293.39,"ecefy":4928770.84,"ecefz":2680974.84,"ecefvx":0.01,"ecefvy":-0.02,"ecefvz":0.03,"ecefpAcc":42.13,"ecefvAcc":0.54,"geoidSep":19.364,"eph":14.867,"sep":24.160}
2023-02-02 12:17:08 1675340228.452811: {"class":"SKY","device":"/dev/serial/by-id/usb-Prolific_Technology_Inc._USB-Serial_Controller_CHCTb115818-if00-port0","xdop":0.99,"ydop":1.15,"vdop":5.07,"tdop":3.91,"hdop":1.49,"gdop":6.58,"pdop":5.29,"satellites":[{"PRN":1,"el":12.0,"az":49.0,"ss":0.0,"used":false,"gnssid":0,"svid":1,"health":1},{"PRN":3,"el":40.0,"az":49.0,"ss":16.0,"used":true,"gnssid":0,"svid":3,"health":1},{"PRN":4,"el":12.0,"az":109.0,"ss":0.0,"used":false,"gnssid":0,"svid":4,"health":1},{"PRN":6,"el":44.0,"az":280.0,"ss":30.0,"used":true,"gnssid":0,"svid":6,"health":1},{"PRN":9,"el":12.0,"az":143.0,"ss":14.0,"used":false,"gnssid":0,"svid":9,"health":1},{"PRN":11,"el":13.0,"az":253.0,"ss":13.0,"used":false,"gnssid":0,"svid":11,"health":1},{"PRN":14,"el":66.0,"az":187.0,"ss":35.0,"used":true,"gnssid":0,"svid":14,"health":1},{"PRN":17,"el":55.0,"az":9.0,"ss":17.0,"used":true,"gnssid":0,"svid":17,"health":1},{"PRN":19,"el":37.0,"az":326.0,"ss":27.0,"used":true,"gnssid":0,"svid":19,"health":1},{"PRN":20,"el":1.0,"az":214.0,"ss":0.0,"used":false,"gnssid":0,"svid":20,"health":1},{"PRN":30,"el":9.0,"az":199.0,"ss":0.0,"used":false,"gnssid":0,"svid":30,"health":1},{"PRN":40,"el":13.0,"az":260.0,"ss":0.0,"used":false,"gnssid":1,"svid":127,"health":1},{"PRN":42,"el":54.0,"az":142.0,"ss":0.0,"used":false,"gnssid":1,"svid":129,"health":1},{"PRN":50,"el":60.0,"az":167.0,"ss":37.0,"used":false,"gnssid":1,"svid":137,"health":1},{"PRN":194,"el":53.0,"az":162.0,"ss":18.0,"used":true,"gnssid":5,"svid":2,"health":1},{"PRN":195,"el":66.0,"az":38.0,"ss":0.0,"used":false,"gnssid":5,"svid":3,"health":1},{"PRN":196,"el":53.0,"az":142.0,"ss":21.0,"used":false,"gnssid":5,"svid":4,"health":1}]}
2023-02-02 12:17:08 1675340228.563368: {"class":"TPV","device":"/dev/serial/by-id/usb-Prolific_Technology_Inc._USB-Serial_Controller_CHCTb115818-if00-port0","status":2,"mode":3,"time":"2023-02-02T12:17:08.000Z","leapseconds":18,"ept":0.005,"lat":25.018726700,"lon":121.541719300,"altHAE":48.384,"altMSL":31.325,"alt":31.325,"epx":3.738,"epy":4.262,"epv":39.419,"track":31.6248,"magtrack":27.0170,"magvar":-4.6,"speed":0.040,"climb":0.000,"eps":0.54,"epc":51.10,"ecefx":-3025293.39,"ecefy":4928770.84,"ecefz":2680974.84,"ecefvx":0.01,"ecefvy":-0.02,"ecefvz":0.03,"ecefpAcc":42.13,"ecefvAcc":0.54,"geoidSep":19.364,"eph":14.867,"sep":24.160}
2023-02-02 12:17:09 1675340229.001934: {"class":"PPS","device":"/dev/serial/by-id/usb-Prolific_Technology_Inc._USB-Serial_Controller_CHCTb115818-if00-port0","real_sec":1675340229,"real_nsec":0,"clock_sec":1675340229,"clock_nsec":1776578,"precision":-10}
2023-02-02 12:17:09 1675340229.129071: {"class":"TPV","device":"/dev/serial/by-id/usb-Prolific_Technology_Inc._USB-Serial_Controller_CHCTb115818-if00-port0","status":2,"mode":3,"time":"2023-02-02T12:17:09.000Z","leapseconds":18,"ept":0.005,"lat":25.018726700,"lon":121.541719300,"altHAE":48.384,"altMSL":31.325,"alt":31.325,"epx":3.738,"epy":4.262,"epv":39.419,"track":31.6248,"magtrack":27.0170,"magvar":-4.6,"speed":0.040,"climb":0.000,"eps":0.62,"epc":51.10,"ecefx":-3025293.52,"ecefy":4928771.37,"ecefz":2680975.24,"ecefvx":0.04,"ecefvy":0.02,"ecefvz":0.01,"ecefpAcc":42.01,"ecefvAcc":0.62,"geoidSep":19.364,"eph":14.867,"sep":24.160}
2023-02-02 12:17:09 1675340229.224886: {"class":"TPV","device":"/dev/serial/by-id/usb-Prolific_Technology_Inc._USB-Serial_Controller_CHCTb115818-if00-port0","status":2,"mode":3,"time":"2023-02-02T12:17:09.000Z","leapseconds":18,"ept":0.005,"lat":25.018728000,"lon":121.541717700,"altHAE":49.026,"altMSL":31.967,"alt":31.967,"epx":3.738,"epy":4.262,"epv":39.318,"track":31.6248,"magtrack":27.0170,"magvar":-4.6,"speed":0.051,"climb":0.000,"eps":0.62,"epc":51.10,"ecefx":-3025293.52,"ecefy":4928771.37,"ecefz":2680975.24,"ecefvx":0.04,"ecefvy":0.02,"ecefvz":0.01,"ecefpAcc":42.01,"ecefvAcc":0.62,"geoidSep":19.364,"eph":14.811,"sep":24.160}
2023-02-02 12:17:10 1675340230.001933: {"class":"PPS","device":"/dev/serial/by-id/usb-Prolific_Technology_Inc._USB-Serial_Controller_CHCTb115818-if00-port0","real_sec":1675340230,"real_nsec":0,"clock_sec":1675340230,"clock_nsec":1772171,"precision":-10}
2023-02-02 12:17:10 1675340230.126097: {"class":"TPV","device":"/dev/serial/by-id/usb-Prolific_Technology_Inc._USB-Serial_Controller_CHCTb115818-if00-port0","status":2,"mode":3,"time":"2023-02-02T12:17:10.000Z","leapseconds":18,"ept":0.005,"lat":25.018728000,"lon":121.541717700,"altHAE":49.026,"altMSL":31.967,"alt":31.967,"epx":3.738,"epy":4.262,"epv":39.318,"track":31.6248,"magtrack":27.0170,"magvar":-4.6,"speed":0.051,"climb":0.000,"eps":0.74,"epc":51.10,"ecefx":-3025293.69,"ecefy":4928771.45,"ecefz":2680975.53,"ecefvx":-0.07,"ecefvy":-0.09,"ecefvz":0.09,"ecefpAcc":41.91,"ecefvAcc":0.74,"geoidSep":19.364,"eph":14.811,"sep":24.160}
2023-02-02 12:17:10 1675340230.221985: {"class":"TPV","device":"/dev/serial/by-id/usb-Prolific_Technology_Inc._USB-Serial_Controller_CHCTb115818-if00-port0","status":2,"mode":3,"time":"2023-02-02T12:17:10.000Z","leapseconds":18,"ept":0.005,"lat":25.018729800,"lon":121.541718700,"altHAE":49.285,"altMSL":32.226,"alt":32.226,"epx":3.738,"epy":4.262,"epv":39.223,"track":31.6248,"magtrack":27.0170,"magvar":-4.6,"speed":0.148,"climb":0.000,"eps":0.74,"epc":51.10,"ecefx":-3025293.69,"ecefy":4928771.45,"ecefz":2680975.53,"ecefvx":-0.07,"ecefvy":-0.09,"ecefvz":0.09,"ecefpAcc":41.91,"ecefvAcc":0.74,"geoidSep":19.364,"eph":14.769,"sep":24.160}
2023-02-02 12:17:10 1675340230.332257: {"class":"TPV","device":"/dev/serial/by-id/usb-Prolific_Technology_Inc._USB-Serial_Controller_CHCTb115818-if00-port0","status":2,"mode":3,"time":"2023-02-02T12:17:10.000Z","leapseconds":18,"ept":0.005,"lat":25.018729800,"lon":121.541718700,"altHAE":49.285,"altMSL":32.226,"alt":32.226,"epx":3.738,"epy":4.262,"epv":39.223,"track":31.6248,"magtrack":27.0170,"magvar":-4.6,"speed":0.148,"climb":0.000,"eps":0.74,"epc":51.10,"ecefx":-3025293.69,"ecefy":4928771.45,"ecefz":2680975.53,"ecefvx":-0.07,"ecefvy":-0.09,"ecefvz":0.09,"ecefpAcc":41.91,"ecefvAcc":0.74,"geoidSep":19.364,"eph":14.769,"sep":24.160}
2023-02-02 12:17:11 1675340231.001913: {"class":"PPS","device":"/dev/serial/by-id/usb-Prolific_Technology_Inc._USB-Serial_Controller_CHCTb115818-if00-port0","real_sec":1675340231,"real_nsec":0,"clock_sec":1675340231,"clock_nsec":1754706,"precision":-10}
2023-02-02 12:17:11 1675340231.128001: {"class":"TPV","device":"/dev/serial/by-id/usb-Prolific_Technology_Inc._USB-Serial_Controller_CHCTb115818-if00-port0","status":2,"mode":3,"time":"2023-02-02T12:17:11.000Z","leapseconds":18,"ept":0.005,"lat":25.018729800,"lon":121.541718700,"altHAE":49.285,"altMSL":32.226,"alt":32.226,"epx":3.738,"epy":4.262,"epv":39.223,"track":31.6248,"magtrack":27.0170,"magvar":-4.6,"speed":0.148,"climb":0.000,"eps":0.74,"epc":51.10,"ecefx":-3025294.05,"ecefy":4928771.65,"ecefz":2680976.08,"ecefvx":-0.08,"ecefvy":-0.12,"ecefvz":0.14,"ecefpAcc":41.83,"ecefvAcc":0.74,"geoidSep":19.364,"eph":14.769,"sep":24.160}
2023-02-02 12:17:11 1675340231.223859: {"class":"TPV","device":"/dev/serial/by-id/usb-Prolific_Technology_Inc._USB-Serial_Controller_CHCTb115818-if00-port0","status":2,"mode":3,"time":"2023-02-02T12:17:11.000Z","leapseconds":18,"ept":0.005,"lat":25.018732900,"lon":121.541720700,"altHAE":49.845,"altMSL":32.786,"alt":32.786,"epx":3.738,"epy":4.262,"epv":39.145,"track":31.6248,"magtrack":27.0170,"magvar":-4.6,"speed":0.201,"climb":0.000,"eps":0.74,"epc":51.10,"ecefx":-3025294.05,"ecefy":4928771.65,"ecefz":2680976.08,"ecefvx":-0.08,"ecefvy":-0.12,"ecefvz":0.14,"ecefpAcc":41.83,"ecefvAcc":0.74,"geoidSep":19.364,"eph":14.744,"sep":24.160}
2023-02-02 12:17:12 1675340232.001910: {"class":"PPS","device":"/dev/serial/by-id/usb-Prolific_Technology_Inc._USB-Serial_Controller_CHCTb115818-if00-port0","real_sec":1675340232,"real_nsec":0,"clock_sec":1675340232,"clock_nsec":1751713,"precision":-10}
2023-02-02 12:17:12 1675340232.129004: {"class":"TPV","device":"/dev/serial/by-id/usb-Prolific_Technology_Inc._USB-Serial_Controller_CHCTb115818-if00-port0","status":2,"mode":3,"time":"2023-02-02T12:17:12.000Z","leapseconds":18,"ept":0.005,"lat":25.018732900,"lon":121.541720700,"altHAE":49.845,"altMSL":32.786,"alt":32.786,"epx":3.738,"epy":4.262,"epv":39.145,"track":31.6248,"magtrack":27.0170,"magvar":-4.6,"speed":0.201,"climb":0.000,"eps":0.76,"epc":51.10,"ecefx":-3025294.13,"ecefy":4928771.35,"ecefz":2680976.07,"ecefvx":-0.11,"ecefvy":-0.11,"ecefvz":0.08,"ecefpAcc":41.75,"ecefvAcc":0.76,"geoidSep":19.364,"eph":14.744,"sep":24.160}
2023-02-02 12:17:12 1675340232.224915: {"class":"TPV","device":"/dev/serial/by-id/usb-Prolific_Technology_Inc._USB-Serial_Controller_CHCTb115818-if00-port0","status":2,"mode":3,"time":"2023-02-02T12:17:12.000Z","leapseconds":18,"ept":0.005,"lat":25.018733600,"lon":121.541722900,"altHAE":49.655,"altMSL":32.596,"alt":32.596,"epx":3.738,"epy":4.262,"epv":39.063,"track":31.6248,"magtrack":27.0170,"magvar":-4.6,"speed":0.176,"climb":0.000,"eps":0.76,"epc":51.10,"ecefx":-3025294.13,"ecefy":4928771.35,"ecefz":2680976.07,"ecefvx":-0.11,"ecefvy":-0.11,"ecefvz":0.08,"ecefpAcc":41.75,"ecefvAcc":0.76,"geoidSep":19.364,"eph":14.721,"sep":24.160}
2023-02-02 12:17:12 1675340232.335049: {"class":"TPV","device":"/dev/serial/by-id/usb-Prolific_Technology_Inc._USB-Serial_Controller_CHCTb115818-if00-port0","status":2,"mode":3,"time":"2023-02-02T12:17:12.000Z","leapseconds":18,"ept":0.005,"lat":25.018733600,"lon":121.541722900,"altHAE":49.655,"altMSL":32.596,"alt":32.596,"epx":3.738,"epy":4.262,"epv":39.063,"track":31.6248,"magtrack":27.0170,"magvar":-4.6,"speed":0.176,"climb":0.000,"eps":0.76,"epc":51.10,"ecefx":-3025294.13,"ecefy":4928771.35,"ecefz":2680976.07,"ecefvx":-0.11,"ecefvy":-0.11,"ecefvz":0.08,"ecefpAcc":41.75,"ecefvAcc":0.76,"geoidSep":19.364,"eph":14.721,"sep":24.160}
2023-02-02 12:17:13 1675340233.001894: {"class":"PPS","device":"/dev/serial/by-id/usb-Prolific_Technology_Inc._USB-Serial_Controller_CHCTb115818-if00-port0","real_sec":1675340233,"real_nsec":0,"clock_sec":1675340233,"clock_nsec":1735744,"precision":-10}
2023-02-02 12:17:13 1675340233.129068: {"class":"TPV","device":"/dev/serial/by-id/usb-Prolific_Technology_Inc._USB-Serial_Controller_CHCTb115818-if00-port0","status":2,"mode":3,"time":"2023-02-02T12:17:13.000Z","leapseconds":18,"ept":0.005,"lat":25.018733600,"lon":121.541722900,"altHAE":49.655,"altMSL":32.596,"alt":32.596,"epx":3.738,"epy":4.262,"epv":39.063,"track":31.6248,"magtrack":27.0170,"magvar":-4.6,"speed":0.176,"climb":0.000,"eps":0.75,"epc":51.10,"ecefx":-3025294.08,"ecefy":4928770.97,"ecefz":2680975.85,"ecefvx":-0.06,"ecefvy":-0.05,"ecefvz":0.03,"ecefpAcc":41.65,"ecefvAcc":0.75,"geoidSep":19.364,"eph":14.721,"sep":24.160}
2023-02-02 12:17:13 1675340233.224988: {"class":"TPV","device":"/dev/serial/by-id/usb-Prolific_Technology_Inc._USB-Serial_Controller_CHCTb115818-if00-port0","status":2,"mode":3,"time":"2023-02-02T12:17:13.000Z","leapseconds":18,"ept":0.005,"lat":25.018733200,"lon":121.541724500,"altHAE":49.241,"altMSL":32.182,"alt":32.182,"epx":3.738,"epy":4.262,"epv":38.974,"track":31.6248,"magtrack":27.0170,"magvar":-4.6,"speed":0.083,"climb":0.000,"eps":0.75,"epc":51.10,"ecefx":-3025294.08,"ecefy":4928770.97,"ecefz":2680975.85,"ecefvx":-0.06,"ecefvy":-0.05,"ecefvz":0.03,"ecefpAcc":41.65,"ecefvAcc":0.75,"geoidSep":19.364,"eph":14.691,"sep":24.160}
2023-02-02 12:17:14 1675340234.001885: {"class":"PPS","device":"/dev/serial/by-id/usb-Prolific_Technology_Inc._USB-Serial_Controller_CHCTb115818-if00-port0","real_sec":1675340234,"real_nsec":0,"clock_sec":1675340234,"clock_nsec":1727904,"precision":-10}
2023-02-02 12:17:14 1675340234.129333: {"class":"TPV","device":"/dev/serial/by-id/usb-Prolific_Technology_Inc._USB-Serial_Controller_CHCTb115818-if00-port0","status":2,"mode":3,"time":"2023-02-02T12:17:14.000Z","leapseconds":18,"ept":0.005,"lat":25.018733200,"lon":121.541724500,"altHAE":49.241,"altMSL":32.182,"alt":32.182,"epx":3.738,"epy":4.262,"epv":38.974,"track":31.6248,"magtrack":27.0170,"magvar":-4.6,"speed":0.083,"climb":0.000,"eps":0.74,"epc":51.10,"ecefx":-3025294.14,"ecefy":4928770.77,"ecefz":2680975.85,"ecefvx":-0.04,"ecefvy":-0.04,"ecefvz":0.01,"ecefpAcc":41.59,"ecefvAcc":0.74,"geoidSep":19.364,"eph":14.691,"sep":24.160}
2023-02-02 12:17:14 1675340234.225051: {"class":"TPV","device":"/dev/serial/by-id/usb-Prolific_Technology_Inc._USB-Serial_Controller_CHCTb115818-if00-port0","status":2,"mode":3,"time":"2023-02-02T12:17:14.000Z","leapseconds":18,"ept":0.005,"lat":25.018733700,"lon":121.541726000,"altHAE":49.113,"altMSL":32.054,"alt":32.054,"epx":3.738,"epy":4.262,"epv":38.919,"track":31.6248,"magtrack":27.0170,"magvar":-4.6,"speed":0.054,"climb":0.000,"eps":0.74,"epc":51.10,"ecefx":-3025294.14,"ecefy":4928770.77,"ecefz":2680975.85,"ecefvx":-0.04,"ecefvy":-0.04,"ecefvz":0.01,"ecefpAcc":41.59,"ecefvAcc":0.74,"geoidSep":19.364,"eph":14.674,"sep":24.160}
2023-02-02 12:17:14 1675340234.335348: {"class":"TPV","device":"/dev/serial/by-id/usb-Prolific_Technology_Inc._USB-Serial_Controller_CHCTb115818-if00-port0","status":2,"mode":3,"time":"2023-02-02T12:17:14.000Z","leapseconds":18,"ept":0.005,"lat":25.018733700,"lon":121.541726000,"altHAE":49.113,"altMSL":32.054,"alt":32.054,"epx":3.738,"epy":4.262,"epv":38.919,"track":31.6248,"magtrack":27.0170,"magvar":-4.6,"speed":0.054,"climb":0.000,"eps":0.74,"epc":51.10,"ecefx":-3025294.14,"ecefy":4928770.77,"ecefz":2680975.85,"ecefvx":-0.04,"ecefvy":-0.04,"ecefvz":0.01,"ecefpAcc":41.59,"ecefvAcc":0.74,"geoidSep":19.364,"eph":14.674,"sep":24.160}
2023-02-02 12:17:15 1675340235.001908: {"class":"PPS","device":"/dev/serial/by-id/usb-Prolific_Technology_Inc._USB-Serial_Controller_CHCTb115818-if00-port0","real_sec":1675340235,"real_nsec":0,"clock_sec":1675340235,"clock_nsec":1712246,"precision":-10}
2023-02-02 12:17:15 1675340235.129112: {"class":"TPV","device":"/dev/serial/by-id/usb-Prolific_Technology_Inc._USB-Serial_Controller_CHCTb115818-if00-port0","status":2,"mode":3,"time":"2023-02-02T12:17:15.000Z","leapseconds":18,"ept":0.005,"lat":25.018733700,"lon":121.541726000,"altHAE":49.113,"altMSL":32.054,"alt":32.054,"epx":3.738,"epy":4.262,"epv":38.919,"track":31.6248,"magtrack":27.0170,"magvar":-4.6,"speed":0.054,"climb":0.000,"eps":0.66,"epc":51.10,"ecefx":-3025294.07,"ecefy":4928770.47,"ecefz":2680975.62,"ecefvx":-0.03,"ecefvy":-0.03,"ecefvz":-0.01,"ecefpAcc":41.54,"ecefvAcc":0.66,"geoidSep":19.364,"eph":14.674,"sep":24.160}
2023-02-02 12:17:15 1675340235.224666: {"class":"TPV","device":"/dev/serial/by-id/usb-Prolific_Technology_Inc._USB-Serial_Controller_CHCTb115818-if00-port0","status":2,"mode":3,"time":"2023-02-02T12:17:15.000Z","leapseconds":18,"ept":0.005,"lat":25.018733000,"lon":121.541727000,"altHAE":48.748,"altMSL":31.689,"alt":31.689,"epx":3.738,"epy":4.262,"epv":38.866,"track":31.6248,"magtrack":27.0170,"magvar":-4.6,"speed":0.046,"climb":0.000,"eps":0.66,"epc":51.10,"ecefx":-3025294.07,"ecefy":4928770.47,"ecefz":2680975.62,"ecefvx":-0.03,"ecefvy":-0.03,"ecefvz":-0.01,"ecefpAcc":41.54,"ecefvAcc":0.66,"geoidSep":19.364,"eph":14.653,"sep":24.160}
2023-02-02 12:17:16 1675340236.001902: {"class":"PPS","device":"/dev/serial/by-id/usb-Prolific_Technology_Inc._USB-Serial_Controller_CHCTb115818-if00-port0","real_sec":1675340236,"real_nsec":0,"clock_sec":1675340236,"clock_nsec":1707410,"precision":-10}
2023-02-02 12:17:16 1675340236.127801: {"class":"TPV","device":"/dev/serial/by-id/usb-Prolific_Technology_Inc._USB-Serial_Controller_CHCTb115818-if00-port0","status":2,"mode":3,"time":"2023-02-02T12:17:16.000Z","leapseconds":18,"ept":0.005,"lat":25.018733000,"lon":121.541727000,"altHAE":48.748,"altMSL":31.689,"alt":31.689,"epx":3.738,"epy":4.262,"epv":38.866,"track":31.6248,"magtrack":27.0170,"magvar":-4.6,"speed":0.046,"climb":0.000,"eps":0.73,"epc":51.10,"ecefx":-3025294.00,"ecefy":4928770.46,"ecefz":2680975.63,"ecefvx":-0.02,"ecefvy":-0.04,"ecefvz":0.03,"ecefpAcc":41.47,"ecefvAcc":0.73,"geoidSep":19.364,"eph":14.653,"sep":24.160}
2023-02-02 12:17:16 1675340236.223766: {"class":"TPV","device":"/dev/serial/by-id/usb-Prolific_Technology_Inc._USB-Serial_Controller_CHCTb115818-if00-port0","status":2,"mode":3,"time":"2023-02-02T12:17:16.000Z","leapseconds":18,"ept":0.005,"lat":25.018733200,"lon":121.541726500,"altHAE":48.720,"altMSL":31.661,"alt":31.661,"epx":3.738,"epy":4.262,"epv":38.809,"track":31.6248,"magtrack":27.0170,"magvar":-4.6,"speed":0.053,"climb":0.000,"eps":0.73,"epc":51.10,"ecefx":-3025294.00,"ecefy":4928770.46,"ecefz":2680975.63,"ecefvx":-0.02,"ecefvy":-0.04,"ecefvz":0.03,"ecefpAcc":41.47,"ecefvAcc":0.73,"geoidSep":19.364,"eph":14.630,"sep":24.160}
2023-02-02 12:17:16 1675340236.333928: {"class":"TPV","device":"/dev/serial/by-id/usb-Prolific_Technology_Inc._USB-Serial_Controller_CHCTb115818-if00-port0","status":2,"mode":3,"time":"2023-02-02T12:17:16.000Z","leapseconds":18,"ept":0.005,"lat":25.018733200,"lon":121.541726500,"altHAE":48.720,"altMSL":31.661,"alt":31.661,"epx":3.738,"epy":4.262,"epv":38.809,"track":31.6248,"magtrack":27.0170,"magvar":-4.6,"speed":0.053,"climb":0.000,"eps":0.73,"epc":51.10,"ecefx":-3025294.00,"ecefy":4928770.46,"ecefz":2680975.63,"ecefvx":-0.02,"ecefvy":-0.04,"ecefvz":0.03,"ecefpAcc":41.47,"ecefvAcc":0.73,"geoidSep":19.364,"eph":14.630,"sep":24.160}
2023-02-02 12:17:17 1675340237.001847: {"class":"PPS","device":"/dev/serial/by-id/usb-Prolific_Technology_Inc._USB-Serial_Controller_CHCTb115818-if00-port0","real_sec":1675340237,"real_nsec":0,"clock_sec":1675340237,"clock_nsec":1689094,"precision":-10}
2023-02-02 12:17:17 1675340237.123851: {"class":"TPV","device":"/dev/serial/by-id/usb-Prolific_Technology_Inc._USB-Serial_Controller_CHCTb115818-if00-port0","status":2,"mode":3,"time":"2023-02-02T12:17:17.000Z","leapseconds":18,"ept":0.005,"lat":25.018733200,"lon":121.541726500,"altHAE":48.720,"altMSL":31.661,"alt":31.661,"epx":3.738,"epy":4.262,"epv":38.809,"track":31.6248,"magtrack":27.0170,"magvar":-4.6,"speed":0.053,"climb":0.000,"eps":0.42,"epc":51.10,"ecefx":-3025293.81,"ecefy":4928770.13,"ecefz":2680975.33,"ecefvx":0.03,"ecefvy":-0.02,"ecefvz":0.03,"ecefpAcc":41.41,"ecefvAcc":0.42,"geoidSep":19.364,"eph":14.630,"sep":24.160}
2023-02-02 12:17:17 1675340237.219752: {"class":"TPV","device":"/dev/serial/by-id/usb-Prolific_Technology_Inc._USB-Serial_Controller_CHCTb115818-if00-port0","status":2,"mode":3,"time":"2023-02-02T12:17:17.000Z","leapseconds":18,"ept":0.005,"lat":25.018732200,"lon":121.541726500,"altHAE":48.240,"altMSL":31.181,"alt":31.181,"epx":3.738,"epy":4.262,"epv":38.750,"track":31.6248,"magtrack":27.0170,"magvar":-4.6,"speed":0.041,"climb":0.000,"eps":0.42,"epc":51.10,"ecefx":-3025293.81,"ecefy":4928770.13,"ecefz":2680975.33,"ecefvx":0.03,"ecefvy":-0.02,"ecefvz":0.03,"ecefpAcc":41.41,"ecefvAcc":0.42,"geoidSep":19.364,"eph":14.605,"sep":24.160}
2023-02-02 12:17:18 1675340238.001845: {"class":"PPS","device":"/dev/serial/by-id/usb-Prolific_Technology_Inc._USB-Serial_Controller_CHCTb115818-if00-port0","real_sec":1675340238,"real_nsec":0,"clock_sec":1675340238,"clock_nsec":1687559,"precision":-10}
2023-02-02 12:17:18 1675340238.130309: {"class":"TPV","device":"/dev/serial/by-id/usb-Prolific_Technology_Inc._USB-Serial_Controller_CHCTb115818-if00-port0","status":2,"mode":3,"time":"2023-02-02T12:17:18.000Z","leapseconds":18,"ept":0.005,"lat":25.018732200,"lon":121.541726500,"altHAE":48.240,"altMSL":31.181,"alt":31.181,"epx":3.738,"epy":4.262,"epv":38.750,"track":31.6248,"magtrack":27.0170,"magvar":-4.6,"speed":0.041,"climb":0.000,"eps":0.34,"epc":51.10,"ecefx":-3025293.70,"ecefy":4928769.76,"ecefz":2680975.06,"ecefvx":0.02,"ecefvy":-0.02,"ecefvz":0.00,"ecefpAcc":41.37,"ecefvAcc":0.34,"geoidSep":19.364,"eph":14.605,"sep":24.160}
2023-02-02 12:17:18 1675340238.226019: {"class":"TPV","device":"/dev/serial/by-id/usb-Prolific_Technology_Inc._USB-Serial_Controller_CHCTb115818-if00-port0","status":2,"mode":3,"time":"2023-02-02T12:17:18.000Z","leapseconds":18,"ept":0.005,"lat":25.018731400,"lon":121.541727600,"altHAE":47.795,"altMSL":30.736,"alt":30.736,"epx":3.738,"epy":4.262,"epv":38.712,"track":31.6248,"magtrack":27.0170,"magvar":-4.6,"speed":0.013,"climb":0.000,"eps":0.34,"epc":51.10,"ecefx":-3025293.70,"ecefy":4928769.76,"ecefz":2680975.06,"ecefvx":0.02,"ecefvy":-0.02,"ecefvz":0.00,"ecefpAcc":41.37,"ecefvAcc":0.34,"geoidSep":19.364,"eph":14.595,"sep":24.160}
2023-02-02 12:17:18 1675340238.454919: {"class":"SKY","device":"/dev/serial/by-id/usb-Prolific_Technology_Inc._USB-Serial_Controller_CHCTb115818-if00-port0","xdop":0.99,"ydop":1.12,"vdop":5.08,"tdop":3.92,"hdop":1.49,"gdop":6.58,"pdop":5.29,"satellites":[{"PRN":1,"el":12.0,"az":49.0,"ss":0.0,"used":false,"gnssid":0,"svid":1,"health":1},{"PRN":3,"el":40.0,"az":49.0,"ss":12.0,"used":true,"gnssid":0,"svid":3,"health":1},{"PRN":4,"el":12.0,"az":109.0,"ss":0.0,"used":false,"gnssid":0,"svid":4,"health":1},{"PRN":6,"el":44.0,"az":280.0,"ss":30.0,"used":true,"gnssid":0,"svid":6,"health":1},{"PRN":9,"el":12.0,"az":143.0,"ss":16.0,"used":false,"gnssid":0,"svid":9,"health":1},{"PRN":11,"el":13.0,"az":253.0,"ss":14.0,"used":false,"gnssid":0,"svid":11,"health":1},{"PRN":14,"el":66.0,"az":186.0,"ss":33.0,"used":true,"gnssid":0,"svid":14,"health":1},{"PRN":17,"el":56.0,"az":9.0,"ss":16.0,"used":true,"gnssid":0,"svid":17,"health":1},{"PRN":19,"el":38.0,"az":327.0,"ss":28.0,"used":true,"gnssid":0,"svid":19,"health":1},{"PRN":20,"el":1.0,"az":214.0,"ss":0.0,"used":false,"gnssid":0,"svid":20,"health":1},{"PRN":30,"el":9.0,"az":199.0,"ss":0.0,"used":false,"gnssid":0,"svid":30,"health":1},{"PRN":40,"el":13.0,"az":260.0,"ss":0.0,"used":false,"gnssid":1,"svid":127,"health":1},{"PRN":42,"el":54.0,"az":142.0,"ss":0.0,"used":false,"gnssid":1,"svid":129,"health":1},{"PRN":50,"el":60.0,"az":167.0,"ss":37.0,"used":false,"gnssid":1,"svid":137,"health":1},{"PRN":194,"el":53.0,"az":162.0,"ss":19.0,"used":true,"gnssid":5,"svid":2,"health":1},{"PRN":195,"el":66.0,"az":38.0,"ss":0.0,"used":false,"gnssid":5,"svid":3,"health":1},{"PRN":196,"el":53.0,"az":142.0,"ss":21.0,"used":false,"gnssid":5,"svid":4,"health":1}]}
2023-02-02 12:17:18 1675340238.565399: {"class":"TPV","device":"/dev/serial/by-id/usb-Prolific_Technology_Inc._USB-Serial_Controller_CHCTb115818-if00-port0","status":2,"mode":3,"time":"2023-02-02T12:17:18.000Z","leapseconds":18,"ept":0.005,"lat":25.018731400,"lon":121.541727600,"altHAE":47.795,"altMSL":30.736,"alt":30.736,"epx":3.738,"epy":4.262,"epv":38.712,"track":31.6248,"magtrack":27.0170,"magvar":-4.6,"speed":0.013,"climb":0.000,"eps":0.34,"epc":51.10,"ecefx":-3025293.70,"ecefy":4928769.76,"ecefz":2680975.06,"ecefvx":0.02,"ecefvy":-0.02,"ecefvz":0.00,"ecefpAcc":41.37,"ecefvAcc":0.34,"geoidSep":19.364,"eph":14.595,"sep":24.160}
2023-02-02 12:17:19 1675340239.001865: {"class":"PPS","device":"/dev/serial/by-id/usb-Prolific_Technology_Inc._USB-Serial_Controller_CHCTb115818-if00-port0","real_sec":1675340239,"real_nsec":0,"clock_sec":1675340239,"clock_nsec":1668157,"precision":-10}
2023-02-02 12:17:19 1675340239.129095: {"class":"TPV","device":"/dev/serial/by-id/usb-Prolific_Technology_Inc._USB-Serial_Controller_CHCTb115818-if00-port0","status":2,"mode":3,"time":"2023-02-02T12:17:19.000Z","leapseconds":18,"ept":0.005,"lat":25.018731400,"lon":121.541727600,"altHAE":47.795,"altMSL":30.736,"alt":30.736,"epx":3.738,"epy":4.262,"epv":38.712,"track":31.6248,"magtrack":27.0170,"magvar":-4.6,"speed":0.013,"climb":0.000,"eps":0.70,"epc":51.10,"ecefx":-3025293.69,"ecefy":4928769.47,"ecefz":2680975.00,"ecefvx":-0.02,"ecefvy":-0.08,"ecefvz":0.07,"ecefpAcc":41.35,"ecefvAcc":0.70,"geoidSep":19.364,"eph":14.595,"sep":24.160}
2023-02-02 12:17:19 1675340239.224778: {"class":"TPV","device":"/dev/serial/by-id/usb-Prolific_Technology_Inc._USB-Serial_Controller_CHCTb115818-if00-port0","status":2,"mode":3,"time":"2023-02-02T12:17:19.000Z","leapseconds":18,"ept":0.005,"lat":25.018731800,"lon":121.541729000,"altHAE":47.538,"altMSL":30.479,"alt":30.479,"epx":3.738,"epy":4.262,"epv":38.692,"track":31.6248,"magtrack":27.0170,"magvar":-4.6,"speed":0.103,"climb":0.000,"eps":0.70,"epc":51.10,"ecefx":-3025293.69,"ecefy":4928769.47,"ecefz":2680975.00,"ecefvx":-0.02,"ecefvy":-0.08,"ecefvz":0.07,"ecefpAcc":41.35,"ecefvAcc":0.70,"geoidSep":19.364,"eph":14.592,"sep":24.160}
2023-02-02 12:17:20 1675340240.001865: {"class":"PPS","device":"/dev/serial/by-id/usb-Prolific_Technology_Inc._USB-Serial_Controller_CHCTb115818-if00-port0","real_sec":1675340240,"real_nsec":0,"clock_sec":1675340240,"clock_nsec":1666632,"precision":-10}
2023-02-02 12:17:20 1675340240.130273: {"class":"TPV","device":"/dev/serial/by-id/usb-Prolific_Technology_Inc._USB-Serial_Controller_CHCTb115818-if00-port0","status":2,"mode":3,"time":"2023-02-02T12:17:20.000Z","leapseconds":18,"ept":0.005,"lat":25.018731800,"lon":121.541729000,"altHAE":47.538,"altMSL":30.479,"alt":30.479,"epx":3.738,"epy":4.262,"epv":38.692,"track":31.6248,"magtrack":27.0170,"magvar":-4.6,"speed":0.103,"climb":0.000,"eps":0.71,"epc":51.10,"ecefx":-3025293.38,"ecefy":4928768.90,"ecefz":2680974.50,"ecefvx":-0.02,"ecefvy":-0.08,"ecefvz":0.05,"ecefpAcc":41.31,"ecefvAcc":0.71,"geoidSep":19.364,"eph":14.592,"sep":24.160}
2023-02-02 12:17:20 1675340240.226085: {"class":"TPV","device":"/dev/serial/by-id/usb-Prolific_Technology_Inc._USB-Serial_Controller_CHCTb115818-if00-port0","status":2,"mode":3,"time":"2023-02-02T12:17:20.000Z","leapseconds":18,"ept":0.005,"lat":25.018730300,"lon":121.541729300,"altHAE":46.735,"altMSL":29.676,"alt":29.676,"epx":3.738,"epy":4.262,"epv":38.656,"track":31.6248,"magtrack":27.0170,"magvar":-4.6,"speed":0.094,"climb":0.000,"eps":0.71,"epc":51.10,"ecefx":-3025293.38,"ecefy":4928768.90,"ecefz":2680974.50,"ecefvx":-0.02,"ecefvy":-0.08,"ecefvz":0.05,"ecefpAcc":41.31,"ecefvAcc":0.71,"geoidSep":19.364,"eph":14.581,"sep":24.160}
2023-02-02 12:17:20 1675340240.336502: {"class":"TPV","device":"/dev/serial/by-id/usb-Prolific_Technology_Inc._USB-Serial_Controller_CHCTb115818-if00-port0","status":2,"mode":3,"time":"2023-02-02T12:17:20.000Z","leapseconds":18,"ept":0.005,"lat":25.018730300,"lon":121.541729300,"altHAE":46.735,"altMSL":29.676,"alt":29.676,"epx":3.738,"epy":4.262,"epv":38.656,"track":31.6248,"magtrack":27.0170,"magvar":-4.6,"speed":0.094,"climb":0.000,"eps":0.71,"epc":51.10,"ecefx":-3025293.38,"ecefy":4928768.90,"ecefz":2680974.50,"ecefvx":-0.02,"ecefvy":-0.08,"ecefvz":0.05,"ecefpAcc":41.31,"ecefvAcc":0.71,"geoidSep":19.364,"eph":14.581,"sep":24.160}
2023-02-02 12:17:21 1675340241.001809: {"class":"PPS","device":"/dev/serial/by-id/usb-Prolific_Technology_Inc._USB-Serial_Controller_CHCTb115818-if00-port0","real_sec":1675340241,"real_nsec":0,"clock_sec":1675340241,"clock_nsec":1648700,"precision":-10}
2023-02-02 12:17:21 1675340241.128770: {"class":"TPV","device":"/dev/serial/by-id/usb-Prolific_Technology_Inc._USB-Serial_Controller_CHCTb115818-if00-port0","status":2,"mode":3,"time":"2023-02-02T12:17:21.000Z","leapseconds":18,"ept":0.005,"lat":25.018730300,"lon":121.541729300,"altHAE":46.735,"altMSL":29.676,"alt":29.676,"epx":3.738,"epy":4.262,"epv":38.656,"track":31.6248,"magtrack":27.0170,"magvar":-4.6,"speed":0.094,"climb":0.000,"eps":0.73,"epc":51.10,"ecefx":-3025293.17,"ecefy":4928768.28,"ecefz":2680974.12,"ecefvx":-0.04,"ecefvy":-0.10,"ecefvz":0.06,"ecefpAcc":41.30,"ecefvAcc":0.73,"geoidSep":19.364,"eph":14.581,"sep":24.160}
2023-02-02 12:17:21 1675340241.224633: {"class":"TPV","device":"/dev/serial/by-id/usb-Prolific_Technology_Inc._USB-Serial_Controller_CHCTb115818-if00-port0","status":2,"mode":3,"time":"2023-02-02T12:17:21.000Z","leapseconds":18,"ept":0.005,"lat":25.018729600,"lon":121.541730800,"altHAE":45.997,"altMSL":28.938,"alt":28.938,"epx":3.738,"epy":4.262,"epv":38.641,"track":31.6248,"magtrack":27.0170,"magvar":-4.6,"speed":0.116,"climb":0.000,"eps":0.72,"epc":51.10,"ecefx":-3025293.17,"ecefy":4928768.28,"ecefz":2680974.12,"ecefvx":-0.04,"ecefvy":-0.10,"ecefvz":0.06,"ecefpAcc":41.30,"ecefvAcc":0.73,"geoidSep":19.364,"eph":14.586,"sep":24.160}
2023-02-02 12:17:22 1675340242.001799: {"class":"PPS","device":"/dev/serial/by-id/usb-Prolific_Technology_Inc._USB-Serial_Controller_CHCTb115818-if00-port0","real_sec":1675340242,"real_nsec":0,"clock_sec":1675340242,"clock_nsec":1640615,"precision":-10}
2023-02-02 12:17:22 1675340242.132697: {"class":"TPV","device":"/dev/serial/by-id/usb-Prolific_Technology_Inc._USB-Serial_Controller_CHCTb115818-if00-port0","status":2,"mode":3,"time":"2023-02-02T12:17:22.000Z","leapseconds":18,"ept":0.005,"lat":25.018729600,"lon":121.541730800,"altHAE":45.997,"altMSL":28.938,"alt":28.938,"epx":3.738,"epy":4.262,"epv":38.641,"track":31.6248,"magtrack":27.0170,"magvar":-4.6,"speed":0.116,"climb":0.000,"eps":0.56,"epc":51.10,"ecefx":-3025292.55,"ecefy":4928767.78,"ecefz":2680973.31,"ecefvx":0.04,"ecefvy":-0.01,"ecefvz":-0.04,"ecefpAcc":41.28,"ecefvAcc":0.56,"geoidSep":19.364,"eph":14.586,"sep":24.160}
2023-02-02 12:17:22 1675340242.228261: {"class":"TPV","device":"/dev/serial/by-id/usb-Prolific_Technology_Inc._USB-Serial_Controller_CHCTb115818-if00-port0","status":2,"mode":3,"time":"2023-02-02T12:17:22.000Z","leapseconds":18,"ept":0.005,"lat":25.018725900,"lon":121.541728100,"altHAE":44.977,"altMSL":27.918,"alt":27.918,"epx":3.738,"epy":4.262,"epv":38.614,"track":31.6248,"magtrack":27.0170,"magvar":-4.6,"speed":0.039,"climb":0.000,"eps":0.56,"epc":51.10,"ecefx":-3025292.55,"ecefy":4928767.78,"ecefz":2680973.31,"ecefvx":0.04,"ecefvy":-0.01,"ecefvz":-0.04,"ecefpAcc":41.28,"ecefvAcc":0.56,"geoidSep":19.364,"eph":14.582,"sep":24.160}
2023-02-02 12:17:22 1675340242.338375: {"class":"TPV","device":"/dev/serial/by-id/usb-Prolific_Technology_Inc._USB-Serial_Controller_CHCTb115818-if00-port0","status":2,"mode":3,"time":"2023-02-02T12:17:22.000Z","leapseconds":18,"ept":0.005,"lat":25.018725900,"lon":121.541728100,"altHAE":44.977,"altMSL":27.918,"alt":27.918,"epx":3.738,"epy":4.262,"epv":38.614,"track":31.6248,"magtrack":27.0170,"magvar":-4.6,"speed":0.039,"climb":0.000,"eps":0.56,"epc":51.10,"ecefx":-3025292.55,"ecefy":4928767.78,"ecefz":2680973.31,"ecefvx":0.04,"ecefvy":-0.01,"ecefvz":-0.04,"ecefpAcc":41.28,"ecefvAcc":0.56,"geoidSep":19.364,"eph":14.582,"sep":24.160}
2023-02-02 12:17:23 1675340243.001801: {"class":"PPS","device":"/dev/serial/by-id/usb-Prolific_Technology_Inc._USB-Serial_Controller_CHCTb115818-if00-port0","real_sec":1675340243,"real_nsec":0,"clock_sec":1675340243,"clock_nsec":1642774,"precision":-10}
2023-02-02 12:17:23 1675340243.128902: {"class":"TPV","device":"/dev/serial/by-id/usb-Prolific_Technology_Inc._USB-Serial_Controller_CHCTb115818-if00-port0","status":2,"mode":3,"time":"2023-02-02T12:17:23.000Z","leapseconds":18,"ept":0.005,"lat":25.018725900,"lon":121.541728100,"altHAE":44.977,"altMSL":27.918,"alt":27.918,"epx":3.738,"epy":4.262,"epv":38.614,"track":31.6248,"magtrack":27.0170,"magvar":-4.6,"speed":0.039,"climb":0.000,"eps":0.67,"epc":51.10,"ecefx":-3025292.24,"ecefy":4928767.45,"ecefz":2680972.86,"ecefvx":0.08,"ecefvy":0.01,"ecefvz":-0.05,"ecefpAcc":41.26,"ecefvAcc":0.67,"geoidSep":19.364,"eph":14.582,"sep":24.160}
2023-02-02 12:17:23 1675340243.224631: {"class":"TPV","device":"/dev/serial/by-id/usb-Prolific_Technology_Inc._USB-Serial_Controller_CHCTb115818-if00-port0","status":2,"mode":3,"time":"2023-02-02T12:17:23.000Z","leapseconds":18,"ept":0.005,"lat":25.018723800,"lon":121.541727200,"altHAE":44.384,"altMSL":27.325,"alt":27.325,"epx":3.738,"epy":4.262,"epv":38.597,"track":31.6248,"magtrack":27.0170,"magvar":-4.6,"speed":0.085,"climb":0.000,"eps":0.67,"epc":51.10,"ecefx":-3025292.24,"ecefy":4928767.45,"ecefz":2680972.86,"ecefvx":0.08,"ecefvy":0.01,"ecefvz":-0.05,"ecefpAcc":41.26,"ecefvAcc":0.67,"geoidSep":19.364,"eph":14.579,"sep":24.160}
2023-02-02 12:17:24 1675340244.001779: {"class":"PPS","device":"/dev/serial/by-id/usb-Prolific_Technology_Inc._USB-Serial_Controller_CHCTb115818-if00-port0","real_sec":1675340244,"real_nsec":0,"clock_sec":1675340244,"clock_nsec":1621255,"precision":-10}
2023-02-02 12:17:24 1675340244.130249: {"class":"TPV","device":"/dev/serial/by-id/usb-Prolific_Technology_Inc._USB-Serial_Controller_CHCTb115818-if00-port0","status":2,"mode":3,"time":"2023-02-02T12:17:24.000Z","leapseconds":18,"ept":0.005,"lat":25.018723800,"lon":121.541727200,"altHAE":44.384,"altMSL":27.325,"alt":27.325,"epx":3.738,"epy":4.262,"epv":38.597,"track":31.6248,"magtrack":27.0170,"magvar":-4.6,"speed":0.085,"climb":0.000,"eps":0.41,"epc":51.10,"ecefx":-3025291.88,"ecefy":4928766.92,"ecefz":2680972.29,"ecefvx":0.03,"ecefvy":-0.03,"ecefvz":-0.04,"ecefpAcc":41.21,"ecefvAcc":0.41,"geoidSep":19.364,"eph":14.579,"sep":24.160}
2023-02-02 12:17:24 1675340244.226030: {"class":"TPV","device":"/dev/serial/by-id/usb-Prolific_Technology_Inc._USB-Serial_Controller_CHCTb115818-if00-port0","status":2,"mode":3,"time":"2023-02-02T12:17:24.000Z","leapseconds":18,"ept":0.005,"lat":25.018721600,"lon":121.541726900,"altHAE":43.559,"altMSL":26.500,"alt":26.500,"epx":3.738,"epy":4.262,"epv":38.556,"track":31.6248,"magtrack":27.0170,"magvar":-4.6,"speed":0.020,"climb":0.000,"eps":0.41,"epc":51.10,"ecefx":-3025291.88,"ecefy":4928766.92,"ecefz":2680972.29,"ecefvx":0.03,"ecefvy":-0.03,"ecefvz":-0.04,"ecefpAcc":41.21,"ecefvAcc":0.41,"geoidSep":19.364,"eph":14.563,"sep":24.160}
